[
  {
    "id": "kurovychi",
    "name": "Озеро Куровичі",
    "place": "с. Куровичі, Львівська область",
    "distance": "14.8 км",
    "description": "Приватна водойма для спокійних виїздів, де добре працюють короп, карась і білий амур.",
    "fish": ["Короп", "Карась", "Білий амур"],
    "catchCount": "18 риб",
    "center": [49.866, 24.884],
    "coordinates": [49.866, 24.884]
  },
  {
    "id": "prylbychi",
    "name": "Пруд у Прилбичах",
    "place": "с. Прилбичі, Яворівський район",
    "distance": "27.4 км",
    "description": "Спортивна водойма з платною риболовлею і стабільним кльовом на фідер та поплавок.",
    "fish": ["Короп", "Лящ", "Карась"],
    "catchCount": "22 риби",
    "center": [49.956, 23.574],
    "coordinates": [49.956, 23.574]
  },
  {
    "id": "soluky",
    "name": "Пруд у Солуках",
    "place": "с. Солуки, Львівський район",
    "distance": "11.1 км",
    "description": "Водойма поблизу Львова з добрим берегом і точками під фідер та поплавок.",
    "fish": ["Карась", "Короп", "Лящ"],
    "catchCount": "15 риб",
    "center": [49.867, 24.051],
    "coordinates": [49.867, 24.051]
  },
  {
    "id": "shchyrets",
    "name": "Щирецьке водосховище",
    "place": "смт Щирець, Львівська область",
    "distance": "19.6 км",
    "description": "Популярна водойма для виїздів на карася, ляща та невеликого коропа.",
    "fish": ["Карась", "Лящ", "Короп"],
    "catchCount": "13 риб",
    "center": [49.65, 23.97],
    "coordinates": [49.65, 23.97]
  },
  {
    "id": "briukhovychi",
    "name": "Озеро в Брюховичах",
    "place": "смт Брюховичі, Львів",
    "distance": "9.3 км",
    "description": "Зручний міський виїзд, де стабільно працюють поплавок і легкий фідер.",
    "fish": ["Карась", "Окунь", "Лящ"],
    "catchCount": "11 риб",
    "center": [49.91, 23.95],
    "coordinates": [49.91, 23.95]
  },
  {
    "id": "druzhba",
    "name": "База «Дружба»",
    "place": "біля Городка",
    "distance": "30.1 км",
    "description": "Рибальська база з кількома глибинами і перспективними точками на хижака.",
    "fish": ["Короп", "Щука", "Сом"],
    "catchCount": "19 риб",
    "center": [49.8, 23.74],
    "coordinates": [49.8, 23.74]
  }
]
